[{"id":1,"name":"ZOOPLY","lat":"21.9481503","lng":"-102.3272269","category":"Distribuidor","address":"Av. Paseo de las Maravillas No. 502-4 Col. Corral de Barrancos","address2":"","city":"Aguascalientes","state":"Aguascalientes","postal":"20900","phone":"(449) 106-9033","phone2":"","linkmap":"https:\\\/\\\/goo.gl\/maps\/AMgogsiENMzVMyzK6","web":"","hours1":"","hours2":"","hours3":"","featured":"","features":"","date":"2022-06-22"},{"id":2,"name":"LA CASA DE LA NUTRICION ANIMAL LUPITA DEL ZAPOTE","lat":"16.6783138","lng":"-93.7346995","category":"Distribuidor","address":"Carr. Panamericana Km 74+ 580, Cintalapa","address2":"","city":"Chiapas","state":"Chiapas","postal":"30400","phone":"(968) 6845 201","phone2":"","linkmap":"https:\\\/\\\/goo.gl\/maps\/LztKPxae35p3WCfA8","web":"","hours1":"","hours2":"","hours3":"","featured":"","features":"","date":"2022-06-22"},{"id":3,"name":"YURIDIA JIMÉNEZ","lat":"16.2386572","lng":"-92.1333395","category":"Distribuidor","address":"4ta. Av. Pte. Sur, Belisario Domínguez","address2":"","city":"Comitán de Domínguez","state":"Chiapas","postal":"30043","phone":"(963) 135-6189","phone2":"","linkmap":"https:\\\/\\\/goo.gl\/maps\/r68cg6SLxXtnGqku5","web":"","hours1":"","hours2":"","hours3":"","featured":"","features":"","date":"2022-06-22"},{"id":4,"name":"CONCENTRADOS DEL REAL","lat":"26.9320515","lng":"-105.6504366","category":"Distribuidor","address":"Av. Tecnológico No. 37, Col. Centro","address2":"","city":"Hidalgo del Parral","state":"Chihuahua","postal":"33850","phone":"(627) 523-0576","phone2":"","linkmap":"https:\\\/\\\/goo.gl\/maps\/qtidbWkBg99bBhyY7","web":"","hours1":"","hours2":"","hours3":"","featured":"","features":"","date":"2022-06-22"},{"id":5,"name":"MINERALES NOYOLA","lat":"28.4143981","lng":"-106.8455261","category":"Distribuidor","address":"Andador de los Oyameles No. 2803, Col. FOVISSSTE","address2":"","city":"Cuauhtémoc","state":"Chihuahua","postal":"31560","phone":"(625) 118-9245","phone2":"","linkmap":"https:\\\/\\\/goo.gl\/maps\/tys2Bs4y3MyDDXSHA","web":"","hours1":"","hours2":"","hours3":"","featured":"","features":"","date":"2022-06-22"},{"id":6,"name":"DISTRIBUIDORA ALFA","lat":"19.549848","lng":"-99.055402","category":"Distribuidor","address":"Av. Industrias No. 1, Col. Industrial","address2":"","city":"Ecatepec","state":"Edo. de México","postal":"55540","phone":"55 6549 9819","phone2":"","linkmap":"https:\\\/\\\/goo.gl\/maps\/VVARjRGgzJJ9VyEZ8","web":"","hours1":"","hours2":"","hours3":"","featured":"","features":"","date":"2022-06-22"},{"id":7,"name":"CASA ROGELIO","lat":"19.5765353","lng":"-99.2616348","category":"Distribuidor","address":"Bodegas de Atizapán, Ex Hacienda del Pedregal No. 5 Lote 4 Col. Lomas Lindas","address2":"","city":"Atizapán","state":"Edo. de México","postal":"52947","phone":"(55) 5822-8144","phone2":"","linkmap":"https:\\\/\\\/goo.gl\/maps\/KdMtjvkwwJyPGue47","web":"","hours1":"","hours2":"","hours3":"","featured":"","features":"","date":"2022-06-22"},{"id":8,"name":"CHILES Y SEMILLAS EL TÍO","lat":"19.5769699","lng":"-99.259413","category":"Distribuidor","address":"Bodegas de Atizapán, Ex Hacienda del Pedregal No. 8 Local 10-12 Col. Lomas Lindas","address2":"","city":"Atizapán","state":"Edo. de México","postal":"52947","phone":"(55) 5825-2205","phone2":"","linkmap":"https:\\\/\\\/goo.gl\/maps\/vb8kFZWry5nQfX2p6","web":"","hours1":"","hours2":"","hours3":"","featured":"","features":"","date":"2022-06-22"},{"id":9,"name":"CASA CROQUETAS (EL BOFITO)","lat":"19.4702656","lng":"-99.1138402","category":"Distribuidor","address":"Av. Victoria Ote. No. 3809-B, Col. Tres Estrellas","address2":"","city":"Gustavo A. Madero","state":"Cd. de México","postal":"07830","phone":"(55) 7162-1843","phone2":"(55) 8866-8904","linkmap":"https:\\\/\\\/goo.gl\/maps\/HTw7w4hi4xYaXMib8","web":"","hours1":"","hours2":"","hours3":"","featured":"","features":"","date":"2022-06-22"},{"id":10,"name":"MASCOTA SCORPION PROVIDENCIA","lat":"19.4850194","lng":"-99.070141","category":"Distribuidor","address":"Edo. de Oaxaca No. 116, Col. Providencia","address2":"","city":"Gustavo A. Madero","state":"Cd. de México","postal":"07550","phone":"(55) 5712-4505","phone2":"","linkmap":"https:\\\/\\\/goo.gl\/maps\/8bCvSZEPWtsixrz59","web":"","hours1":"","hours2":"","hours3":"","featured":"","features":"","date":"2022-06-22"},{"id":11,"name":"PUMASCOTA CUAUTITLÁN","lat":"19.6700058","lng":"-99.1692971","category":"Distribuidor","address":"Libramiento La Joya No.1 Col. Rancho Tlaltepan","address2":"","city":"Cuautitlán","state":"Edo. de México","postal":"54800","phone":" (55) 5250-5585","phone2":"","linkmap":"https:\\\/\\\/goo.gl\/maps\/4u2rxxkfWerzXh2L7","web":"","hours1":"","hours2":"","hours3":"","featured":"","features":"","date":"2022-06-22"},{"id":12,"name":"PUMASCOTA TOLTECAS","lat":"19.5467953","lng":"-99.1887155","category":"Distribuidor","address":"Av. Radial Toltecas No. 336 Col. La Romana","address2":"","city":"Tlalnepantla","state":"Edo. de México","postal":"54030","phone":"(55) 3390-7054","phone2":"","linkmap":"https:\\\/\\\/goo.gl\/maps\/D6wsV3NXboyGKUGR6","web":"","hours1":"","hours2":"","hours3":"","featured":"","features":"","date":"2022-06-22"},{"id":13,"name":"SEMILLAS EL CEDRO NAUCALPAN","lat":"19.4685913","lng":"-99.2364994","category":"Distribuidor","address":"Vía Gustavo Baz Sur No. 35 Col. Centro","address2":"","city":"Naucalpan","state":"Edo. de México","postal":"53000","phone":"(55) 7030-7322","phone2":"(55) 7030-7259","linkmap":"https:\\\/\\\/goo.gl\/maps\/TtFqmSsw1eaFHZNcA","web":"","hours1":"","hours2":"","hours3":"","featured":"","features":"","date":"2022-06-22"},{"id":14,"name":"SEMILLAS LA PILA CUITLÁHUAC","lat":"19.5472182","lng":"-99.1915792","category":"Distribuidor","address":"Av. Cuitláhuac No. 339 esq. Radial Toltecas, Col. La Romana","address2":"","city":"Tlalnepantla","state":"Edo. de México","postal":"54030","phone":"(55) 6304-4921","phone2":"","linkmap":"","web":"","hours1":"","hours2":"","hours3":"","featured":"","features":"","date":"2022-06-22"},{"id":15,"name":"SEMILLAS LA PILA ECATEPEC","lat":"19.61571","lng":"-99.0056582","category":"Distribuidor","address":"Central de Abastos Ecatepec Nave B Bodega 259","address2":"","city":"Ecatepec","state":"Edo. de México","postal":"55060","phone":"(55) 5958-2833","phone2":"","linkmap":"https:\\\/\\\/goo.gl\/maps\/fFQxnWdd8o1pWK179","web":"","hours1":"","hours2":"","hours3":"","featured":"","features":"","date":"2022-06-22"},{"id":16,"name":"SEMILLAS LA PILA ECATEPEC II","lat":"19.61571","lng":"-99.0056582","category":"Distribuidor","address":"Central de Abastos Ecatepec Nave I Bodega 806","address2":"","city":"Ecatepec","state":"Edo. de México","postal":"55060","phone":"(55) 2486-0345","phone2":"","linkmap":"https:\\\/\\\/goo.gl\/maps\/fFQxnWdd8o1pWK179","web":"","hours1":"","hours2":"","hours3":"","featured":"","features":"","date":"2022-06-22"},{"id":17,"name":"SEMILLAS LA PILA TOLTECAS","lat":"19.549023","lng":"-99.198429","category":"Distribuidor","address":"Av. Radial Toltecas No. 261, Col. La Romana","address2":"","city":"Tlalnepantla","state":"Edo. de México","postal":"54030","phone":"(55) 1665-6577","phone2":"","linkmap":"https:\\\/\\\/www.google.com.mx\/maps\/search\/Av.+Radial+Toltecas+No.+261+Col.+La+Romana+Tlalnepantla,+Edo.+de+M%C3%A9xico+C.P.+54030\/@19.549023,-99.198429,16z","web":"","hours1":"","hours2":"","hours3":"","featured":"","features":"","date":"2022-06-22"},{"id":18,"name":"SEMILLAS LA PILA TULTITLÁN","lat":"19.6393363","lng":"-99.1409986","category":"Distribuidor","address":"Av. Mexiquense s\/n Nave 3, Central de Abastos Tultitlán","address2":"","city":"Tultitlán","state":"Edo. de México","postal":"54900","phone":"(55) 5867-6046","phone2":"","linkmap":"https:\\\/\\\/goo.gl\/maps\/RFcgG1z3VJntiQVo9","web":"https:\\\/\\\/centraldeabastotultitlan.com\/","hours1":"","hours2":"","hours3":"","featured":"","features":"","date":"2022-06-22"},{"id":19,"name":"GRAND PUPPY ROMA","lat":"19.4108011","lng":"-99.1667021","category":"Distribuidor","address":"Calle Medellín No. 209, Col. Roma Sur","address2":"","city":"Cuauhtémoc","state":"Cd. de México","postal":"06760","phone":"(55) 7262-5500","phone2":"","linkmap":"https:\\\/\\\/goo.gl\/maps\/oFwzW4u89Q24AuLV8","web":"","hours1":"","hours2":"","hours3":"","featured":"","features":"","date":"2022-06-22"},{"id":20,"name":"DIZORI","lat":"19.2725733","lng":"-99.6408763","category":"Distribuidor","address":"Wenceslao Labra No. 514, Col. Santa María de las Rosas","address2":"","city":"Toluca de Lerdo","state":"Edo. de México","postal":"50140","phone":"(55) 5594-2338","phone2":"","linkmap":"https:\\\/\\\/goo.gl\/maps\/PxpkrmLgr1iLQ7MT7","web":"","hours1":"","hours2":"","hours3":"","featured":"","features":"","date":"2022-06-22"},{"id":21,"name":"FARMACIA VETERINARIA SÁNCHEZ","lat":"19.5496395","lng":"-99.6113804","category":"Distribuidor","address":"Domicilio conocido s\/n, La Loma de San Felipe","address2":"","city":"Jiquipilco","state":"Edo. de México","postal":"50800","phone":"(712) 103-7459","phone2":"","linkmap":"https:\\\/\\\/goo.gl\/maps\/neeGbp6Q6Wi2sPMD6","web":"","hours1":"","hours2":"","hours3":"","featured":"","features":"","date":"2022-06-22"},{"id":22,"name":"CENTRO DE ABASTO CANINO","lat":"19.3814174","lng":"-99.093003","category":"Distribuidor","address":"Central de Abastos Iztapalapa, Puntos de Venta: Pasillo A Bodega 73 | Pasillo C Bodega 83 Pasillo AB 3 Local 15 | Pasillo CD 3 Local 29 | Pasillo CD 1 Local 29","address2":"","city":"Iztapalapa","state":"Cd. de México","postal":"09040","phone":"(55) 5600-2373","phone2":"(55) 5640-5683","linkmap":"https:\\\/\\\/goo.gl\/maps\/2o7k7hVEMq7AiYLm7","web":"","hours1":"","hours2":"","hours3":"","featured":"","features":"","date":"2022-06-22"},{"id":23,"name":"CENTRO DE ABASTO CANINO","lat":"19.4191966","lng":"-98.9185491","category":"Distribuidor","address":"Central de Abastos San Vicente Chicoloapan Nave B Locales 11 y 12, Central de Abastos Chicoloapan","address2":"","city":"San Vicente Chicoloapan","state":"Edo. de México","postal":"56375","phone":" (55) 5600-2373","phone2":"","linkmap":"https:\\\/\\\/goo.gl\/maps\/q2N7919oM8bP3Ysu7","web":"","hours1":"","hours2":"","hours3":"","featured":"","features":"","date":"2022-06-22"},{"id":24,"name":"CROQUETAS QUINTERO","lat":"19.4026554","lng":"-99.0093951","category":"Distribuidor","address":"Flores Mexicanas No. 96, Col. Benito Juárez (La Aurora)","address2":"","city":"Nezahualcóyotl","state":"Edo. de México","postal":"57000","phone":"","phone2":"","linkmap":"https:\\\/\\\/goo.gl\/maps\/rzDjfkx2jn1eSLvE6","web":"","hours1":"","hours2":"","hours3":"","featured":"","features":"","date":"2022-06-22"},{"id":25,"name":"CROQUETILANDIA","lat":"19.3814174","lng":"-99.093003","category":"Distribuidor","address":"Central de Abastos Iztapalapa - Pasillo 1","address2":"","city":"Iztapalapa","state":"Cd. de México","postal":"09040","phone":"","phone2":"","linkmap":"https:\\\/\\\/goo.gl\/maps\/Hp8cFQZLFDDPLZ1V8","web":"","hours1":"","hours2":"","hours3":"","featured":"","features":"","date":"2022-06-22"},{"id":26,"name":"CROQUETILANDIA JUNIOR","lat":"19.3814174","lng":"-99.093003","category":"Distribuidor","address":"Pasillo 1, Central de Abastos Iztapalapa","address2":"","city":"Iztapalapa","state":"Cd. de México","postal":"09040","phone":"","phone2":"","linkmap":"https:\\\/\\\/goo.gl\/maps\/EcUcnkB4KNJDGaZSA","web":"","hours1":"","hours2":"","hours3":"","featured":"","features":"","date":"2022-06-22"},{"id":27,"name":"CROQUETILANDIA TOMMY","lat":"19.3814174","lng":"-99.093003","category":"Distribuidor","address":"Pasillo 1, Central de Abastos Iztapalapa","address2":"","city":"Iztapalapa","state":"Cd. de México","postal":"09040","phone":"","phone2":"","linkmap":"https:\\\/\\\/goo.gl\/maps\/9Vy5f8dKoBny965W7","web":"","hours1":"","hours2":"","hours3":"","featured":"","features":"","date":"2022-06-22"},{"id":28,"name":"DIZORY TLAHUAC","lat":"19.3054252","lng":"-98.9735692","category":"Distribuidor","address":"Eje 10 Sur No. 1701 Bodega 2, Col. Sta. Catarina","address2":"","city":"Tláhuac","state":"Cd. de México","postal":"13070","phone":"(55) 1738-2922","phone2":"","linkmap":"https:\\\/\\\/goo.gl\/maps\/DVVx1BkevsHnYnYd9","web":"","hours1":"","hours2":"","hours3":"","featured":"","features":"","date":"2022-06-22"},{"id":29,"name":"DIZORY IZTAPALAPA","lat":"19.3773516","lng":"-99.0744052","category":"Distribuidor","address":"24 de Abril de 1860 Lt. 923, Col. Leyes de Reforma 3ª Sección","address2":"","city":"Iztapalapa","state":"Cd. de México","postal":"09310","phone":"(55) 8494-2054","phone2":"","linkmap":"https:\\\/\\\/goo.gl\/maps\/c6sYBz6XUDYhoPsx7","web":"","hours1":"","hours2":"","hours3":"","featured":"","features":"","date":"2022-06-22"},{"id":30,"name":"DULCES REX CHALCO","lat":"19.2774296","lng":"-98.883301","category":"Distribuidor","address":"Av. Cuauhtémoc Mz. 12 Lt.12 Local B Col. Emiliano Zapata","address2":"","city":"Chalco","state":"Edo. de México","postal":"56600","phone":"(55) 1734-1000","phone2":"","linkmap":"https:\\\/\\\/goo.gl\/maps\/yjCTyF8AUxmEkCuX9","web":"","hours1":"","hours2":"","hours3":"","featured":"","features":"","date":"2022-06-22"},{"id":31,"name":"DULCES REX IXTAPALUCA","lat":"19.3125368","lng":"-98.8920875","category":"Distribuidor","address":"Av. Cuauhtémoc s\/n Lt.2 Col. Santa Bárbara","address2":"","city":"Ixtapaluca","state":"Edo. de México","postal":"56538","phone":"(55) 2230-5028","phone2":"","linkmap":"https:\\\/\\\/goo.gl\/maps\/suSHtMDabgV7NEw66","web":"","hours1":"","hours2":"","hours3":"","featured":"","features":"","date":"2022-06-22"},{"id":32,"name":"DULCES REX NEZAHUALCÓYOTL","lat":"19.4057383","lng":"-98.9948721","category":"Distribuidor","address":"Av. Dr. Gustavo Baz No. 237 Col. Benito Juárez","address2":"","city":"Nezahualcóyotl","state":"Edo. de México","postal":"57000","phone":"(55) 2289-0071","phone2":"","linkmap":"https:\\\/\\\/goo.gl\/maps\/PaFuuU4quHKGSXLQA","web":"","hours1":"","hours2":"","hours3":"","featured":"","features":"","date":"2022-06-22"},{"id":33,"name":"DULCES REX SAN BERNABÉ","lat":"19.310303","lng":"-99.2594519","category":"Distribuidor","address":"Av. San Jerónimo No. 2632 PB Col. San Bernabé Ocotepec","address2":"","city":"Magdalena Contreras","state":"Cd. de México","postal":"10300","phone":"(55) 1718-5398","phone2":"","linkmap":"https:\\\/\\\/goo.gl\/maps\/rb8UaGqaaTx1WtJJ9","web":"","hours1":"","hours2":"","hours3":"","featured":"","features":"","date":"2022-06-22"},{"id":34,"name":"DULCES REX TLÁHUAC","lat":"19.2964324","lng":"-99.0237112","category":"Distribuidor","address":"Av. Tláhuac No. 6817 Local A, Col. San Francisco Tlaltenco","address2":"","city":"Tláhuac","state":"Cd. de México","postal":"13400","phone":"(55) 2594-4895","phone2":"","linkmap":"https:\\\/\\\/goo.gl\/maps\/eM9bqfGyf1McKzBf6","web":"","hours1":"","hours2":"","hours3":"","featured":"","features":"","date":"2022-06-22"},{"id":35,"name":"DULCES REX ZAPOTITLÁN","lat":"19.2930962","lng":"-99.0413005","category":"Distribuidor","address":"Guillermo Prieto No. 51 Col. Miguel Hidalgo","address2":"","city":"Tláhuac","state":"Cd. de México","postal":"13200","phone":"(55) 2472-2786","phone2":"","linkmap":"https:\\\/\\\/g.page\/dulces-rex?share","web":"","hours1":"","hours2":"","hours3":"","featured":"","features":"","date":"2022-06-22"},{"id":36,"name":"EL CACHORRIN","lat":"19.3814174","lng":"-99.093003","category":"Distribuidor","address":"Av. Frutas y Legumbres Edificio 1, Locales 4 y 5 Central de Abasto","address2":"","city":"Iztapalapa","state":"Cd. de México","postal":"09040","phone":"(55) 5694-7398","phone2":"","linkmap":"https:\\\/\\\/goo.gl\/maps\/dcbY9gFgf39UFRdJ8","web":"","hours1":"","hours2":"","hours3":"","featured":"","features":"","date":"2022-06-22"},{"id":37,"name":"GRAND DOG ORIENTAL","lat":"19.3863892","lng":"-99.0608442","category":"Distribuidor","address":"Av. Sur 24 No. 412 esq. Oriente 253 Col. Agrícola Oriental","address2":"","city":"Iztacalco","state":"Cd. de México","postal":"08500","phone":"(55) 6840-3891","phone2":"","linkmap":"https:\\\/\\\/goo.gl\/maps\/uG4wLdRUXG3Gbnvv5","web":"","hours1":"","hours2":"","hours3":"","featured":"","features":"","date":"2022-06-22"},{"id":38,"name":"GRAND PUPPY","lat":"19.3814174","lng":"-99.093003","category":"Distribuidor","address":"Av. Frutas y Legumbres Caracol 1 G-H, Central de Abasto","address2":"","city":"Iztapalapa","state":"Cd. de México","postal":"09040","phone":"(55) 7090-2496","phone2":"","linkmap":"https:\\\/\\\/goo.gl\/maps\/D3vNZpBckhuYEhj5A","web":"","hours1":"","hours2":"","hours3":"","featured":"","features":"","date":"2022-06-22"},{"id":39,"name":"GRAND PUPPY ORIENTAL","lat":"19.3953033","lng":"-99.0806001","category":"Distribuidor","address":"Av. Sur 16 No. 449 local B, entre calle 2 y retorno 3, Col. Agrícola Oriental","address2":"","city":"Iztacalco","state":"Cd. de México","postal":"08500","phone":"(55) 8755-7387","phone2":"","linkmap":"https:\\\/\\\/goo.gl\/maps\/jRQPWmfcteV117Hy6","web":"","hours1":"","hours2":"","hours3":"","featured":"","features":"","date":"2022-06-22"},{"id":40,"name":"JOSÉ SÁNCHEZ MEJÍA","lat":"19.295169","lng":"-99.0199407","category":"Distribuidor","address":"Av. Tláhuac No. 6892, Col. San Francisco Tlaltengo","address2":"","city":"Tláhuac","state":"Cd. de México","postal":"13400","phone":"(55) 7109-0518","phone2":"(55) 6628-9214","linkmap":"https:\\\/\\\/goo.gl\/maps\/bbJSyZKB8fvbGFHF6","web":"","hours1":"","hours2":"","hours3":"","featured":"","features":"","date":"2022-06-22"},{"id":41,"name":"KROPET","lat":"19.3814224","lng":"-99.093003","category":"Distribuidor","address":"Central de Abastos Iztapalapa, Bodega D2 y D4 Tlaltengo","address2":"","city":"Tláhuac","state":"Cd. de México","postal":"09040","phone":"(56) 1183-4380","phone2":"","linkmap":"https:\\\/\\\/goo.gl\/maps\/VNeU6UQC6LX1rqd68","web":"","hours1":"","hours2":"","hours3":"","featured":"","features":"","date":"2022-06-22"},{"id":42,"name":"LOS CACHORROS","lat":"19.3814174","lng":"-99.093003","category":"Distribuidor","address":"Av. Frutas y Legumbres, Edificio 4, Local 15 Central de Abasto","address2":"","city":"Iztapalapa","state":"Cd. de México","postal":"09040","phone":"(55) 5600-1586","phone2":"","linkmap":"https:\\\/\\\/goo.gl\/maps\/iULrVGJmG7z2Bna79","web":"","hours1":"","hours2":"","hours3":"","featured":"","features":"","date":"2022-06-22"},{"id":43,"name":"LOS CACHORRITOS ORIENTAL","lat":"19.3885295","lng":"-99.0743552","category":"Distribuidor","address":"Av. Sur 24 No. 30, esq. Rojo Gómez, Col. Agrícola Oriental","address2":"","city":"Iztacalco","state":"Cd. de México","postal":"08500","phone":"(55) 8849-9036","phone2":"","linkmap":"https:\\\/\\\/goo.gl\/maps\/RaCLARtk5xofnTK98","web":"","hours1":"","hours2":"","hours3":"","featured":"","features":"","date":"2022-06-22"},{"id":44,"name":"MASCOTA SCORPION CHICOLOAPAN A","lat":"19.4192016","lng":"-98.9207378","category":"Distribuidor","address":"Nave A Bodega 2 y 3, Central de Abastos San Vicente Chicoloapan","address2":"","city":"Chicoloapan de Juárez","state":"Edo. de México","postal":"56375","phone":"(55) 5921-8194","phone2":"","linkmap":"https:\\\/\\\/goo.gl\/maps\/QtKeykjMbgDJLLW17","web":"","hours1":"","hours2":"","hours3":"","featured":"","features":"","date":"2022-06-22"},{"id":45,"name":"MASCOTA SCORPION CHICOLOAPAN F","lat":"19.4191966","lng":"-98.9207378","category":"Distribuidor","address":"Nave F Bodega 4 y 5, Central de Abastos San Vicente Chicoloapan","address2":"","city":"Chicoloapan de Juárez","state":"Edo. de México","postal":"56375","phone":"(55) 5921-8194","phone2":"","linkmap":"https:\\\/\\\/goo.gl\/maps\/1tejwQ2UARhQaMaK9","web":"","hours1":"","hours2":"","hours3":"","featured":"","features":"","date":"2022-06-22"},{"id":46,"name":"MASCOTA SCORPION LOS REYES","lat":"19.3558044","lng":"-98.9845225","category":"Distribuidor","address":"Carretera México - Puebla Km-18, Col. Los Reyes","address2":"","city":"Acaquilpan Centro","state":"Edo. de México","postal":"56400","phone":"(55) 5856-7479","phone2":"","linkmap":"https:\\\/\\\/goo.gl\/maps\/9i6LovRAuvowfVEG9","web":"","hours1":"","hours2":"","hours3":"","featured":"","features":"","date":"2022-06-22"},{"id":47,"name":"PUMASCOTA TLÁHUAC","lat":"19.2929816","lng":"-99.0411501","category":"Distribuidor","address":"Av. Guillermo Prieto No. 130, Col. La Conchita Zapotitlán","address2":"","city":"Tláhuac","state":"Cd. de México","postal":"13300","phone":"(55) 1313-0995","phone2":"","linkmap":"https:\\\/\\\/goo.gl\/maps\/UihfALoRTmAfz5Y29","web":"","hours1":"","hours2":"","hours3":"","featured":"","features":"","date":"2022-06-22"},{"id":48,"name":"SAN MARCOS MASCOTAS","lat":"19.3778114","lng":"-99.096041","category":"Distribuidor","address":"Central de Abastos Iztapalapa, Bodega C9 y C11","address2":null,"city":"Moxico","state":"Cd. Maxico","postal":"09040","phone":"(55) 5694-3312","phone2":null,"linkmap":"https:\\\/\\\/g.page\/sanmarcos-mascotas?share","web":null,"hours1":null,"hours2":null,"hours3":null,"featured":null,"features":null,"date":"2022-06-22"},{"id":49,"name":"SEMILLAS EL CEDRO CHICOLOAPAN","lat":"19.421718","lng":"-98.9232857","category":"Distribuidor","address":"Carr. Fed. Los Reyes Texcoco Nave A, Bodegas 17 y 18, col. Fracc. El Vergel, Central de Abastos San Vicente Chicoloapan","address2":"","city":"San Vicente Chicoloapan","state":"Edo. de México","postal":"56370","phone":"(55) 2569-6726","phone2":"","linkmap":"https:\\\/\\\/goo.gl\/maps\/uagCWDnFowHvJWDeA","web":"","hours1":"","hours2":"","hours3":"","featured":"","features":"","date":"2022-06-22"},{"id":50,"name":"THE GIANT DOG","lat":"19.3944471","lng":"-99.0715692","category":"Distribuidor","address":"Av. Sur 16 No. 80, esq. Oriente 243-A, Col. Agrícola Oriental","address2":"","city":"Iztacalco","state":"Cd. de México","postal":"08500","phone":"(55) 4168-3632","phone2":"","linkmap":"https:\\\/\\\/goo.gl\/maps\/tmYmfBNSiAHjUbe27","web":"","hours1":"","hours2":"","hours3":"","featured":"","features":"","date":"2022-06-22"},{"id":51,"name":"TIENDAS EL PAS","lat":"19.2550803","lng":"-98.8781974","category":"Distribuidor","address":"Carr. México- Cuautla km 32 Col. San Isidro","address2":"","city":"Chalco","state":"Edo. de México","postal":"56600","phone":"(55) 7591 5522","phone2":"","linkmap":"https:\\\/\\\/goo.gl\/maps\/qQxt1MMZZyiF5fxP7","web":"","hours1":"","hours2":"","hours3":"","featured":"","features":"","date":"2022-06-22"},{"id":52,"name":"FORRAJERA ELIZONDO SUCURSAL SALTILLO","lat":"25.3905559","lng":"-101.0072677","category":"Distribuidor","address":"Blvd. Antonio Cárdenas No. 1305 Local 3, Col. Villas de San Lorenzo","address2":"","city":"Saltillo","state":"Coahuila","postal":"25092","phone":"(81) 8386-2137","phone2":"","linkmap":"https:\\\/\\\/goo.gl\/maps\/pmcXGx1k4S6oQpU1A","web":"","hours1":"","hours2":"","hours3":"","featured":"","features":"","date":"2022-06-22"},{"id":53,"name":"MAYOREO CUAUHTÉMOC","lat":"25.5399268","lng":"-103.4366267","category":"Distribuidor","address":"Calzada Cuauhtémoc Sur No. 136, Col. Centro","address2":"","city":"Torreón","state":"Coahuila","postal":"27000","phone":"(871) 713-3130","phone2":"","linkmap":"https:\\\/\\\/goo.gl\/maps\/iSh9hHWVvNk7D8JA7","web":"","hours1":"","hours2":"","hours3":"","featured":"","features":"","date":"2022-06-22"},{"id":54,"name":"SEMILLAS, FORRAJES Y ABARROTES RUIZ","lat":"25.5157901","lng":"-100.9375233","category":"Distribuidor","address":"Calz. Salto de Agua No. 1360, Col. Manantiales del Valle","address2":"","city":"Ramos Arizpe","state":"Coahuila","postal":"25904","phone":"(84) 4490-5456","phone2":"","linkmap":"https:\\\/\\\/goo.gl\/maps\/z3baFnUwCxhnafbY8","web":"","hours1":"","hours2":"","hours3":"","featured":"","features":"","date":"2022-06-22"},{"id":55,"name":"SEMILLAS, FORRAJES Y PECUARIOS RUIZ","lat":"25.4233432","lng":"-100.9687248","category":"Distribuidor","address":"Periférico Luis Echeverría s\/n, Bodegas 23, 24, 27 y 28 Central de Abastos Saltillo","address2":"","city":"Saltillo","state":"Coahuila","postal":"25020","phone":"(84) 4414-5289","phone2":"(84) 4410-4998","linkmap":"https:\\\/\\\/goo.gl\/maps\/nb8sWwaWHxZSU8NQ6","web":"","hours1":"","hours2":"","hours3":"","featured":"","features":"","date":"2022-06-22"},{"id":56,"name":"FORRAJES VILLA VERDE","lat":"20.0085174","lng":"-99.1955665","category":"Distribuidor","address":"Carretera México – Progreso km 95, Col. El Refugio","address2":"","city":"Atotonilco de Tula","state":"Hidalgo","postal":"43880","phone":"(771) 2979054","phone2":"","linkmap":"https:\\\/\\\/goo.gl\/maps\/Wxud9FrZX9Zg7WVr8","web":"","hours1":"","hours2":"","hours3":"","featured":"","features":"","date":"2022-06-22"},{"id":57,"name":"DISTRIBUIDORA SAOSA","lat":"20.6713364","lng":"-103.3031805","category":"Distribuidor","address":"Av. República No. 2155, Col. Progreso. *Servicio de Entrega a Domicilio*","address2":"","city":"Guadalajara","state":"Jalisco","postal":"44730","phone":"(33) 4737-6759","phone2":"","linkmap":"https:\\\/\\\/goo.gl\/maps\/tvZf8VcAcKaYvbrJ7","web":"","hours1":"","hours2":"","hours3":"","featured":"","features":"Servicio de Entrega a Domicilio*","date":"2022-06-22"},{"id":58,"name":"EXPORTACIÓN E IMPORTACIÓN CEREALES Y SEMILLAS","lat":"20.6502301","lng":"-103.3830164","category":"Distribuidor","address":"Nuez No. 2215, Jardines de la Cruz, Mercado de Abastos","address2":"","city":"Guadalajara","state":"Jalisco","postal":"44950","phone":"(33) 3330-1230","phone2":"","linkmap":"https:\\\/\\\/goo.gl\/maps\/PFax9ERD12qwrKba8","web":"","hours1":"","hours2":"","hours3":"","featured":"","features":"","date":"2022-06-22"},{"id":59,"name":"LA CASA DE TOBBY SUCURSAL CIRCUNVALACIÓN","lat":"20.6963971","lng":"-103.3291645","category":"Distribuidor","address":"Av. Circunvalación Doctor Alt No. 76 Col. Independencia","address2":"","city":"Guadalajara","state":"Jalisco","postal":"44340","phone":"(33) 3609-0581","phone2":"","linkmap":"https:\\\/\\\/goo.gl\/maps\/S55aWNdamwMcg11y5","web":"","hours1":"9am a 9pm","hours2":"","hours3":"","featured":"","features":"","date":"2022-06-22"},{"id":60,"name":"LA CASA DE TOBBY SUCURSAL LÁZARO CÁRDENAS","lat":"20.6583508","lng":"-103.3827338","category":"Distribuidor","address":"Calz. Lázaro Cárdenas No. 2559 Comercial Abastos","address2":"","city":"Guadalajara","state":"Jalisco","postal":"44530","phone":"","phone2":"","linkmap":"https:\\\/\\\/goo.gl\/maps\/sj5oEHRfrZkSdhSD6","web":"","hours1":"7am a 7pm","hours2":"","hours3":"","featured":"","features":"","date":"2022-06-22"},{"id":61,"name":"MUNDO DE CROQUETA","lat":"20.6686524","lng":"-103.2759481","category":"Distribuidor","address":"Av. Presa Laurel No. 454 Col. Lagos de Oriente. *Servicio Entrega a Domicilio*","address2":"","city":"Guadalajara","state":"Jalisco","postal":"44770","phone":"(33) 1991 5598","phone2":"","linkmap":"https:\\\/\\\/goo.gl\/maps\/GbmVvJFEaoiSrRQc7","web":"","hours1":"","hours2":"","hours3":"","featured":"","features":"Servicio Entrega a Domicilio*","date":"2022-06-22"},{"id":62,"name":"NUTRICIÓN ANIMAL DE OCCIDENTE","lat":"20.6353382","lng":"-103.3423948","category":"Distribuidor","address":"Av. Lázaro Cárdenas No. 782-F, Col. La Nogalera","address2":"","city":"Guadalajara","state":"Jalisco","postal":"44470","phone":"(33) 3670-3116","phone2":"","linkmap":"https:\\\/\\\/goo.gl\/maps\/gWX8jTDCjgrT6VLcA","web":"","hours1":"","hours2":"","hours3":"","featured":"","features":"","date":"2022-06-22"},{"id":63,"name":"LA CASA DE TOBBY SUCURSAL SENDEROS","lat":"20.5424954","lng":"-103.3594282","category":"Distribuidor","address":"Av. Concepción No. 6820 Local 7, Santa Cruz del Valle","address2":"","city":"Tlajomulco de Zúñiga","state":"Jalisco","postal":"45653","phone":"(33) 1642-3385","phone2":"","linkmap":"https:\\\/\\\/goo.gl\/maps\/4HuLpkSGf88wsc8y8","web":"","hours1":"","hours2":"","hours3":"","featured":"","features":"","date":"2022-06-22"},{"id":64,"name":"LA CASA DE TOBBY SUCURSAL MATRIZ","lat":"20.5943376","lng":"-103.4105948","category":"Distribuidor","address":"Calle Arroyo Seco No. 376, Arroyo Seco","address2":"","city":"San Pedro Tlaquepaque","state":"Jalisco","postal":"45609","phone":"(33) 3271-8873","phone2":"","linkmap":"https:\\\/\\\/goo.gl\/maps\/sTXmYVEDJPHcdA7dA","web":"","hours1":"9am a 6pm","hours2":"","hours3":"","featured":"","features":"","date":"2022-06-22"},{"id":65,"name":"LA CASA DE TOBBY SUCURSAL RAMÓN CORONA","lat":"20.5574239","lng":"-103.4591948","category":"Distribuidor","address":"Ramón Corona No. 694 Local 1 y 2 San Agustín","address2":"","city":"San Pedro Tlaquepaque","state":"Jalisco","postal":"45640","phone":"(33) 1655-1316","phone2":"","linkmap":"https:\\\/\\\/goo.gl\/maps\/bpdXbBUf9fWoZziW7","web":"","hours1":"","hours2":"","hours3":"","featured":"","features":"","date":"2022-06-22"},{"id":66,"name":"FORRAJERA ROMO","lat":"20.6579964","lng":"-103.258164","category":"Distribuidor","address":"Juárez No. 97A, Col. Zalatitán","address2":"","city":"Tonalá","state":"Jalisco","postal":"45407","phone":"(33) 3791-6850","phone2":"","linkmap":"https:\\\/\\\/goo.gl\/maps\/fawK4m4mmAry9mVS7","web":"","hours1":"","hours2":"","hours3":"","featured":"","features":"","date":"2022-06-22"},{"id":67,"name":"LA CASA DE TOBBY SUCURSAL CRUZ DEL SUR","lat":"20.6289394","lng":"-103.4085783","category":"Distribuidor","address":"Avenida Cruz del Sur No. 5000, Rinconada de la Calma","address2":"","city":"Zapopan","state":"Jalisco","postal":"45080","phone":"(33) 3632-2063","phone2":"","linkmap":"https:\\\/\\\/goo.gl\/maps\/JYxA6ttkyz7bYKyB7","web":"","hours1":"","hours2":"","hours3":"","featured":"","features":"","date":"2022-06-22"},{"id":68,"name":"NUTRISISTEMAS PECUARIOS DE LOS ALTOS","lat":"20.5525709","lng":"-102.4983653","category":"Distribuidor","address":"Av. Independencia Ote. No. 535, Chichimeco","address2":"","city":"Atotonilco el Alto","state":"Jalisco","postal":"47750","phone":"(391) 917-0050","phone2":"","linkmap":"https:\\\/\\\/goo.gl\/maps\/nFQfxjPygJQe3KQm7","web":"","hours1":"","hours2":"","hours3":"","featured":"","features":"","date":"2022-06-22"},{"id":69,"name":"VETERINARIA FIGUEROA","lat":"19.7998506","lng":"-104.2181516","category":"Distribuidor","address":"Circunvalación No. 12 Centro","address2":"","city":"El Grullo","state":"Jalisco","postal":"48740","phone":"(321) 100-1235","phone2":"","linkmap":"https:\\\/\\\/goo.gl\/maps\/Jo67NDEtHg9V8TycA","web":"","hours1":"","hours2":"","hours3":"","featured":"","features":"","date":"2022-06-22"},{"id":70,"name":"AGROPECUARIA MAFE","lat":"20.3147208","lng":"-102.0142309","category":"Distribuidor","address":"Km 3 Carr. La Piedad-Carapa","address2":"","city":"La Piedad","state":"Michoacán","postal":"59300","phone":"(352) 522-2250","phone2":"","linkmap":"https:\\\/\\\/goo.gl\/maps\/9Ek59DAwdqU92HAN6","web":"","hours1":"","hours2":"","hours3":"","featured":"","features":"","date":"2022-06-22"},{"id":71,"name":"LA CHAPOTITA LEADS","lat":"19.1772745","lng":"-102.8509479","category":"Distribuidor","address":"Comisión Tepalcatepec SN, Col. Los Mangos","address2":"","city":"Tepalcatepec","state":"Michoacán","postal":"60540","phone":"(453) 144-0370","phone2":"","linkmap":"https:\\\/\\\/goo.gl\/maps\/vf2cBiLYajm9KQKz8","web":"","hours1":"","hours2":"","hours3":"","featured":"","features":"","date":"2022-06-22"},{"id":72,"name":"SINSA","lat":"20.3386573","lng":"-102.0176086","category":"Distribuidor","address":"Blvd. Adolfo López Mateos No. 270, Col. Centro","address2":"","city":"La Piedad","state":"Michoacán","postal":"59300","phone":"(352) 522-2030","phone2":"","linkmap":"https:\\\/\\\/g.page\/SINSA-VIMIFOS?share","web":"","hours1":"","hours2":"","hours3":"","featured":"","features":"","date":"2022-06-22"},{"id":73,"name":"AGROFORRAJERA LOS AMATES","lat":"18.7110303","lng":"-98.8001824","category":"Distribuidor","address":"Carr. a Amayuca-Temoac s\/n, Amayuca","address2":"","city":"Jantetelco","state":"Morelos","postal":"62972","phone":"(735) 150 8784","phone2":"","linkmap":"https:\\\/\\\/goo.gl\/maps\/c4DBrd44NXD5AdwUA","web":"","hours1":"","hours2":"","hours3":"","featured":"","features":"","date":"2022-06-22"},{"id":74,"name":"LA CASA DE TOBBY","lat":"21.5217513","lng":"-104.898998","category":"Distribuidor","address":"Construcción No. 500, Col. Santa Teresita","address2":"","city":"Tepic","state":"Nayarit","postal":"63082","phone":"(311) 216-5700","phone2":"","linkmap":"https:\\\/\\\/goo.gl\/maps\/87TtZyUS7s3pqiSF6","web":"","hours1":"","hours2":"","hours3":"","featured":"","features":"","date":"2022-06-22"},{"id":75,"name":"FORRAJERA ELIZONDO","lat":"25.775151","lng":"-100.1917317","category":"Distribuidor","address":"Blvd. Carlos Salinas de Gortari No.600 Col. Centro","address2":"","city":"Apodaca","state":"Nuevo León","postal":"66600","phone":"(81) 8386-2137","phone2":"(81) 8386 2197 | 3218","linkmap":"https:\\\/\\\/goo.gl\/maps\/Y9rMeTtHf2BdkagT9","web":"","hours1":"","hours2":"","hours3":"","featured":"","features":"","date":"2022-06-22"},{"id":76,"name":"BOLA Y BETO","lat":"25.6666291","lng":"-100.1671555","category":"Distribuidor","address":"Plaza Abastos, Av. Juárez No. 12001 Local mm246 Acceso 4, Pasillo H Fracc. Santa Cruz","address2":"","city":"Guadalupe","state":"Nuevo León","postal":"67205","phone":"(81) 8030-8951","phone2":"","linkmap":"https:\\\/\\\/goo.gl\/maps\/wpjmJUMrp5wEMVc4A","web":"","hours1":"","hours2":"","hours3":"","featured":"","features":"","date":"2022-06-22"},{"id":77,"name":"LA ESQUINA DEL ABASTO","lat":"25.666106","lng":"-100.1674725","category":"Distribuidor","address":"Plaza Abastos, Av. Juárez No. 12001 Local mr9m Acceso 7, Pasillo H Fracc. Santa Cruz","address2":"","city":"Guadalupe","state":"Nuevo León","postal":"67190","phone":"(812) 472-7344","phone2":"","linkmap":"https:\\\/\\\/goo.gl\/maps\/yLCGxgebR9cd7ycj9","web":"","hours1":"","hours2":"","hours3":"","featured":"","features":"","date":"2022-06-22"},{"id":78,"name":"SEMILLAS GARCÍA SUCURSAL BODEGA 36","lat":"25.6651862","lng":"-100.2679037","category":"Distribuidor","address":"Av. Chapultepec No. 700 Local 36 Central de Abastos Guadalupe","address2":"","city":"Guadalupe","state":"Nuevo León","postal":"67140","phone":"(81) 8317-6368","phone2":"(81) 8317-1750","linkmap":"https:\\\/\\\/goo.gl\/maps\/ztWfK7QBSGUprJU5A","web":"","hours1":"","hours2":"","hours3":"","featured":"","features":"","date":"2022-06-22"},{"id":79,"name":"SEMILLAS GARCÍA SUCURSAL BODEGA 79","lat":"25.6658055","lng":"-100.2689519","category":"Distribuidor","address":"Av. Chapultepec No. 700, Local 79, Central de Abastos Guadalupe","address2":"","city":"Guadalupe","state":"Nuevo León","postal":"67140","phone":"(81) 8317-0912","phone2":"","linkmap":"https:\\\/\\\/goo.gl\/maps\/8rMATA33xR6zgR91A","web":"","hours1":"","hours2":"","hours3":"","featured":"","features":"","date":"2022-06-22"},{"id":80,"name":"HUEVO SILVA","lat":"25.6755987","lng":"-100.3152905","category":"Distribuidor","address":"Colegio Civil No. 147, Col. Centro","address2":"","city":"Monterrey","state":"Nuevo León","postal":"64000","phone":"(81) 8359-4829","phone2":"","linkmap":"https:\\\/\\\/goo.gl\/maps\/XcNcY57nLYoHJTYSA","web":"","hours1":"","hours2":"","hours3":"","featured":"","features":"","date":"2022-06-22"},{"id":81,"name":"LEAL INDEPENDENCIA SUPER TIENDA","lat":"25.6611381","lng":"-100.3163065","category":"Distribuidor","address":"16 de septiembre No. 302 Ote., Col. Independencia","address2":"","city":"Monterrey","state":"Nuevo León","postal":"64720","phone":"(81) 8190-3726","phone2":"","linkmap":"https:\\\/\\\/goo.gl\/maps\/JmPKcT8xGozjqqaF8","web":"","hours1":"","hours2":"","hours3":"","featured":"","features":"","date":"2022-06-22"},{"id":82,"name":"MATERIAS PRIMAS Y DESECHABLES ÁVILA","lat":"25.6770156","lng":"-100.3154549","category":"Distribuidor","address":"Ruperto Martínez No. 212 Pte. Col. Centro","address2":"","city":"Monterrey","state":"Nuevo León","postal":"64000","phone":"(81) 8344-5018","phone2":"","linkmap":"https:\\\/\\\/g.page\/materiasprimasavila?share","web":"","hours1":"","hours2":"","hours3":"","featured":"","features":"","date":"2022-06-22"},{"id":83,"name":"SUPER TIENDAS ROMA SUCURSAL CUMBRES","lat":"25.7420906","lng":"-100.4120898","category":"Distribuidor","address":"Paseo de Los Leones No. 2001 (Plaza Q), Col. Cumbres Madeira","address2":"","city":"Monterrey","state":"Nuevo León","postal":"64339","phone":"(81) 8358-0069","phone2":"","linkmap":"https:\\\/\\\/goo.gl\/maps\/jqmazcfBKhPEmdpq6","web":"","hours1":"","hours2":"","hours3":"","featured":"","features":"","date":"2022-06-22"},{"id":84,"name":"SUPER TIENDAS ROMA SUCURSAL ROMA","lat":"25.6568361","lng":"-100.3022887","category":"Distribuidor","address":"Calle 2 de Abril No. 1000, Col. Roma","address2":"","city":"Monterrey","state":"Nuevo León","postal":"64700","phone":"(81) 8358-0054","phone2":"","linkmap":"https:\\\/\\\/goo.gl\/maps\/RmD2Z47Qt7gYxnFh7","web":"","hours1":"","hours2":"","hours3":"","featured":"","features":"","date":"2022-06-22"},{"id":85,"name":"DISTRIBUIDORA MMAYJO","lat":"25.7118315","lng":"-100.2954812","category":"Distribuidor","address":"Av. Los Ángeles No. 1000 – 223, Mercado de Abastos Estrella","address2":"","city":"San Nicolás de los Garza","state":"Nuevo León","postal":"66482","phone":"(81) 1814-7415","phone2":"","linkmap":"https:\\\/\\\/g.page\/Mercadodeabastos?share","web":"","hours1":"","hours2":"","hours3":"","featured":"","features":"","date":"2022-06-22"},{"id":86,"name":"ABARROTES ALONSO","lat":"19.0902526","lng":"-98.1887215","category":"Distribuidor","address":"Cto. de los Comerciantes Sur No. 18 Central de Abastos Puebla","address2":"","city":"Puebla","state":"Puebla","postal":"72019","phone":"(222) 288-0918","phone2":"","linkmap":"https:\\\/\\\/goo.gl\/maps\/KAmErMjVrggpwGgh9","web":"","hours1":"","hours2":"","hours3":"","featured":"","features":"","date":"2022-06-22"},{"id":87,"name":"COMERCIALIZADORA RAMÍREZ AYALA","lat":"19.3041992","lng":"-98.4573427","category":"Distribuidor","address":"Carr. Federal México-Puebla No. 4, Col. Centro San Cristobal Tepatlaxco","address2":"","city":"San Martín Texmelucan","state":"Puebla","postal":"74120","phone":"(248) 137 7989","phone2":"","linkmap":"https:\\\/\\\/goo.gl\/maps\/a6ZXNi9za5GWXNNA6","web":"","hours1":"","hours2":"","hours3":"","featured":"","features":"","date":"2022-06-22"},{"id":88,"name":"FORRAJERA LÓPEZ","lat":"18.699007","lng":"-97.7342784","category":"Distribuidor","address":"Carr. Federal Puebla-Tehuacán km 79.3 Tlacotepec","address2":"","city":"Tlacotepec","state":"Puebla","postal":"75681","phone":"(237) 100 5065","phone2":"","linkmap":"https:\\\/\\\/goo.gl\/maps\/tekqQGPoD9gSCCmYA","web":"","hours1":"","hours2":"","hours3":"","featured":"","features":"","date":"2022-06-22"},{"id":89,"name":"VENTA AL PÚBLICO CEDIS  VIMIFOS – TEHUACÁN","lat":"18.4736807","lng":"-97.4473018","category":"Distribuidor","address":"Carr. Federal Puebla – Tehuacán s\/n km 117 San Lorenzo Teotipilco","address2":"","city":"Tehuacán","state":"Puebla","postal":"75855","phone":"(238) 382-1000","phone2":"","linkmap":"https:\\\/\\\/www.google.com.mx\/maps\/search\/Carr.+Federal+Puebla+%E2%80%93+Tehuac%C3%A1n+s%2Fn+km+117+San+Lorenzo+Teotipilco,+Tehuac%C3%A1n,+Pue.+C.P.+75855\/@18.4736807,-97.4473018,14z\/data=!3m1!4b1","web":"","hours1":"","hours2":"","hours3":"","featured":"","features":"","date":"2022-06-22"},{"id":90,"name":"DIAVIM","lat":"20.5758185","lng":"-100.388377","category":"Distribuidor","address":"Cerro Viejo No. 4, Col. Vista Habitacional","address2":"","city":"Santiago de Querétaro","state":"Querétaro","postal":"76074","phone":"(442) 213-7052","phone2":"","linkmap":"https:\\\/\\\/goo.gl\/maps\/dAaieFCToYKfw9q87","web":"","hours1":"","hours2":"","hours3":"","featured":"","features":"","date":"2022-06-22"},{"id":91,"name":"ZONA ANIMAL","lat":"20.6341862","lng":"-100.4609698","category":"Distribuidor","address":"Av. de la Luz No. 742, Cerrito Colorado","address2":"","city":"Santiago de Querétaro","state":"Querétaro","postal":"76116","phone":"(442) 446-8543","phone2":"","linkmap":"https:\\\/\\\/g.page\/zona-animal?share","web":"","hours1":"","hours2":"","hours3":"","featured":"","features":"","date":"2022-06-22"},{"id":92,"name":"ALIMENTOS BALANCEADOS Y VETERINARIA SAN LUIS POTOSÍ","lat":"22.1411854","lng":"-100.9218611","category":"Distribuidor","address":"Cereales No. 133, Centro de Abastos San Luis Potosí","address2":"","city":"San Luis Potosí","state":"San Luis Potosí","postal":"78390","phone":"(444) 821-5837","phone2":"","linkmap":"https:\\\/\\\/goo.gl\/maps\/Gp93YhKKipRLu6eC8","web":"","hours1":"","hours2":"","hours3":"","featured":"","features":"","date":"2022-06-22"},{"id":93,"name":"AGRIGA DE MÉXICO","lat":"29.0969464","lng":"-110.9278744","category":"Distribuidor","address":"Blvd. Enrique Mazón López No. 445 B, Col. San Luis","address2":"","city":"Hermosillo","state":"Sonora","postal":"83160","phone":"(662) 2671181","phone2":"(662) 156-0840","linkmap":"https:\\\/\\\/goo.gl\/maps\/kZZt8qvJuNF1cHPp6","web":"","hours1":"","hours2":"","hours3":"","featured":"","features":"","date":"2022-06-22"},{"id":94,"name":"ALIMENTOS Y FARMACÉUTICOS","lat":"27.0727243","lng":"-109.4554713","category":"Distribuidor","address":"Blvd. Enrique Mazón López No. 445 B, Col. San Luis","address2":"","city":"Navojoa","state":"Sonora","postal":"85870","phone":"(642) 422-7804","phone2":"(642) 421-2778","linkmap":"https:\\\/\\\/goo.gl\/maps\/L6XHLhMeJvnfkUL5A","web":"","hours1":"","hours2":"","hours3":"","featured":"","features":"","date":"2022-06-22"},{"id":95,"name":"FRIJOLES SELECCIONADOS","lat":"27.4882","lng":"-109.92906","category":"Distribuidor","address":"Jalisco No. 663, Centro Cajeme","address2":"","city":"Obregón","state":"Sonora","postal":"85000","phone":"(644) 415-0669","phone2":"","linkmap":"https:\\\/\\\/goo.gl\/maps\/Kk9avzpHsuybYGSh7","web":"","hours1":"","hours2":"","hours3":"","featured":"","features":"","date":"2022-06-22"},{"id":96,"name":"FRIJOLES SELECCIONADOS","lat":"27.4878967","lng":"-109.9430129","category":"Distribuidor","address":"Torreón No. 801-A, Cumuria","address2":"","city":"Obregón","state":"Sonora","postal":"85140","phone":"(644) 415-1779","phone2":"","linkmap":"https:\\\/\\\/goo.gl\/maps\/QoHct2Eqki6ZX6km7","web":"","hours1":"","hours2":"","hours3":"","featured":"","features":"","date":"2022-06-22"},{"id":97,"name":"INSUMOS PECUARIOS","lat":"19.4152063","lng":"-98.1339658","category":"Distribuidor","address":"Blvd. Emilio Sánchez Piedras No. 1618, Col. Ferrocarrilera","address2":"","city":"Apizaco","state":"Tlaxcala","postal":"90342","phone":"(241) 418-5686","phone2":"","linkmap":"https:\\\/\\\/goo.gl\/maps\/o4EShdR7x8sqM6ri6","web":"","hours1":"","hours2":"","hours3":"","featured":"","features":"","date":"2022-06-22"},{"id":98,"name":"LA VICENTINA","lat":"18.9063445","lng":"-96.9973642","category":"Distribuidor","address":"5 Norte No. 605,  Col. Ricardo Ballinas","address2":"","city":"Fortín de las Flores","state":"Veracruz","postal":"94472","phone":"(272) 262-0060","phone2":"","linkmap":"https:\\\/\\\/goo.gl\/maps\/rhhipVk1ivqo4XGn9","web":"","hours1":"","hours2":"","hours3":"","featured":"","features":"","date":"2022-06-22"},{"id":99,"name":"LA VICENTINA","lat":"18.8834536","lng":"-96.9301037","category":"Distribuidor","address":"Av. Miguel Alemán No. 3314 esq calle 33A, Col. Centro","address2":"","city":"Córdoba","state":"Veracruz","postal":"94640","phone":"(272) 262-0060","phone2":"","linkmap":"https:\\\/\\\/goo.gl\/maps\/4kvJBWXoDhhxLcdY9","web":"","hours1":"","hours2":"","hours3":"","featured":"","features":"","date":"2022-06-22"},{"id":100,"name":"LA VICENTINA","lat":"18.8672698","lng":"-96.9046835","category":"Distribuidor","address":"Carretera estatal Córdoba – Veracruz No. 7511 Local A, Rancho Nuevo","address2":"","city":"Córdoba","state":"Veracruz","postal":"94696","phone":"(272) 262 0060","phone2":"","linkmap":"https:\\\/\\\/goo.gl\/maps\/DjSdXyW7KjrF9h1D7","web":"","hours1":"","hours2":"","hours3":"","featured":"","features":"","date":"2022-06-22"},{"id":101,"name":"LA VICENTINA","lat":"19.0313879","lng":"-96.1425026","category":"Distribuidor","address":"Carretera federal Boca del Río – Córdoba No. 314, Paso del Toro","address2":"","city":"Medellín","state":"Veracruz","postal":"94277","phone":"(272) 2620060","phone2":"","linkmap":"https:\\\/\\\/goo.gl\/maps\/dUi9yUh6ExufvSKeA","web":"","hours1":"","hours2":"","hours3":"","featured":"","features":"","date":"2022-06-22"},{"id":102,"name":"LA VICENTINA","lat":"19.1538996","lng":"-96.1424805","category":"Distribuidor","address":"Av. Miguel Alemán No. 3507 esq. Calle 1, Local 2, Col. Pedro Ignacio Mata","address2":"","city":"Veracruz","state":"Veracruz","postal":"91799","phone":"(272) 262-0060","phone2":"","linkmap":"https:\\\/\\\/goo.gl\/maps\/F1y71dwT7Uoe8UNu5","web":"","hours1":"","hours2":"","hours3":"","featured":"","features":"","date":"2022-06-22"},{"id":103,"name":"LA VICENTINA","lat":"18.8666614","lng":"-97.1122997","category":"Distribuidor","address":"Prolongación de Norte 2 No. 605 Col. Abelardo Rodríguez","address2":"","city":"Orizaba","state":"Veracruz","postal":"94310","phone":"(272) 7219152","phone2":"","linkmap":"https:\\\/\\\/goo.gl\/maps\/9EXVoBxUmh7cg9pXA","web":"","hours1":"","hours2":"","hours3":"","featured":"","features":"","date":"2022-06-22"},{"id":104,"name":"LA VICENTINA","lat":"18.9678396","lng":"-97.0154754","category":"Distribuidor","address":"Av. Francisco I. Madero No. 20 Col. Centro","address2":"","city":"Monte Blanco","state":"Veracruz","postal":"94476","phone":"(272) 2620060","phone2":"","linkmap":"https:\\\/\\\/goo.gl\/maps\/JFwy79akSdxkaKBy8","web":"","hours1":"","hours2":"","hours3":"","featured":"","features":"","date":"2022-06-22"},{"id":105,"name":"LA VICENTINA","lat":"19.0714795","lng":"-97.0450027","category":"Distribuidor","address":"C. 7 Independencia No. 24, Col. Centro","address2":"","city":"Coscomatepec","state":"Veracruz","postal":"94140","phone":"(272) 262 0060","phone2":"","linkmap":"https:\\\/\\\/goo.gl\/maps\/jA4Tce5mUBE8Dee18","web":"","hours1":"","hours2":"","hours3":"","featured":"","features":"","date":"2022-06-22"},{"id":106,"name":"LA GRANJA DE XALAPA SUCURSAL POETA 44","lat":"19.532822","lng":"-96.926375","category":"Distribuidor","address":"Poeta Jesús Díaz No. 44, Col. Centro","address2":"","city":"Xalapa","state":"Veracruz","postal":"91000","phone":"(228) 117-9359","phone2":"(228) 117-9685","linkmap":"https:\\\/\\\/goo.gl\/maps\/nJjiZi61WVKyWYHRA","web":"","hours1":"","hours2":"","hours3":"","featured":"","features":"","date":"2022-06-22"},{"id":107,"name":"LA GRANJA DE XALAPA SUCURSAL PIPILA 13","lat":"19.5343778","lng":"-96.9231912","category":"Distribuidor","address":"Av. Pípila No. 13, Col. Centro","address2":"","city":"Xalapa","state":"Veracruz","postal":"91000","phone":"(228) 117-9359","phone2":"","linkmap":"https:\\\/\\\/goo.gl\/maps\/kJMjtg2CejqGZHSY6","web":"","hours1":"","hours2":"","hours3":"","featured":"","features":"","date":"2022-06-22"},{"id":108,"name":"LA GRANJA DE XALAPA SUCURSAL PIPILA 28","lat":"19.5345999","lng":"-96.9216985","category":"Distribuidor","address":"Av. Pípila No. 28, Col. Centro","address2":"","city":"Xalapa","state":"Veracruz","postal":"91000","phone":"(228) 812-4188","phone2":"","linkmap":"https:\\\/\\\/goo.gl\/maps\/1LApKYyo18VicW3D7","web":"","hours1":"","hours2":"","hours3":"","featured":"","features":"","date":"2022-06-22"},{"id":109,"name":"LA GRANJA DE XALAPA SUCURSAL POETA 46","lat":"19.5328044","lng":"-96.9228568","category":"Distribuidor","address":"Poeta Jesús Díaz No. 46, Col. Centro","address2":"","city":"Xalapa","state":"Veracruz","postal":"91000","phone":"(228) 117-8612","phone2":"","linkmap":"https:\\\/\\\/goo.gl\/maps\/bXm7THi7t4ofkbC76","web":"","hours1":"","hours2":"","hours3":"","featured":"","features":"","date":"2022-06-22"},{"id":110,"name":"LA GRANJA DE XALAPA SUCURSAL POETA 70","lat":"19.5328461","lng":"-96.9220836","category":"Distribuidor","address":"Poeta Jesús Díaz No. 70, Col. Centro","address2":"","city":"Xalapa","state":"Veracruz","postal":"91000","phone":"(228) 117-8582","phone2":"","linkmap":"https:\\\/\\\/goo.gl\/maps\/LJ88dqy2UTvJBbMD9","web":"","hours1":"","hours2":"","hours3":"","featured":"","features":"","date":"2022-06-22"},{"id":111,"name":"LA GRANJA DE XALAPA SUCURSAL CLAVIJERO 175","lat":"19.5350946","lng":"-96.9257212","category":"Distribuidor","address":"Av. Francisco J. Clavijero No. 175, Col. Centro","address2":"","city":"Xalapa","state":"Veracruz","postal":"91000","phone":"(228) 117-8617","phone2":"","linkmap":"https:\\\/\\\/goo.gl\/maps\/jbh7QhPMzBi8HwqG8","web":"","hours1":"","hours2":"","hours3":"","featured":"","features":"","date":"2022-06-22"},{"id":112,"name":"LA GRANJA DE XALAPA SUCURSAL SAN BRUNO","lat":"19.5464111","lng":"-96.9460881","category":"Distribuidor","address":"Mártires 28 de Agosto No. 222, Col. San Bruno","address2":"","city":"Xalapa","state":"Veracruz","postal":"91026","phone":"(228) 117-8613","phone2":"","linkmap":"https:\\\/\\\/goo.gl\/maps\/wT9bKhXKzq4HtEUp6","web":"","hours1":"","hours2":"","hours3":"","featured":"","features":"","date":"2022-06-22"},{"id":113,"name":"LA GRANJA DE XALAPA SUCURSAL CAROLINO ANAYA","lat":"19.5409745","lng":"-96.9130518","category":"Distribuidor","address":"Río Pánuco No. 225, Col. Carolino Anaya","address2":"","city":"Xalapa","state":"Veracruz","postal":"91158","phone":"(228) 117-9622","phone2":"","linkmap":"https:\\\/\\\/goo.gl\/maps\/Ktn71evAjj8b2j6y9","web":"","hours1":"","hours2":"","hours3":"","featured":"","features":"","date":"2022-06-22"},{"id":114,"name":"LA GRANJA DE XALAPA SUCURSAL 21 DE MARZO","lat":"19.5725478","lng":"-96.9641428","category":"Distribuidor","address":"Av. Independencia s\/n, Col. 21 de marzo","address2":"","city":"Xalapa","state":"Veracruz","postal":"91100","phone":"(228) 237-1429","phone2":"(228) 237-1437","linkmap":"https:\\\/\\\/goo.gl\/maps\/4abnb9wiHyBvS4MT9","web":"","hours1":"","hours2":"","hours3":"","featured":"","features":"","date":"2022-06-22"},{"id":115,"name":"LA GRANJA DE XALAPA SUCURSAL HIGUERAS","lat":"19.5725478","lng":"-96.9641428","category":"Distribuidor","address":"Monte Sinaí No. 3, Col. Higueras","address2":"","city":"Xalapa","state":"Veracruz","postal":"91180","phone":"(228) 819-8408","phone2":"","linkmap":"https:\\\/\\\/goo.gl\/maps\/UKt59qceAvXJNwS4A","web":"","hours1":"","hours2":"","hours3":"","featured":"","features":"","date":"2022-06-22"},{"id":116,"name":"LA GRANJA DE XALAPA SUCURSAL CENTRAL DE ABASTOS MENUDEO","lat":"19.5146481","lng":"-96.8536195","category":"Distribuidor","address":"Central de Abastos, Col. Loma Esmeralda","address2":"","city":"Xalapa","state":"Veracruz","postal":"91164","phone":"(228) 117-8643","phone2":"","linkmap":"https:\\\/\\\/goo.gl\/maps\/j1Fy68byP7h6MiA76","web":"","hours1":"","hours2":"","hours3":"","featured":"","features":"","date":"2022-06-22"},{"id":117,"name":"LA GRANJA DE XALAPA SUCURSAL CENTRAL DE ABASTOS MAYOREO","lat":"19.5146481","lng":"-96.8536195","category":"Distribuidor","address":"Central de Abastos, Col. Loma Esmeralda","address2":"","city":"Xalapa","state":"Veracruz","postal":"91164","phone":"(228) 117-8644","phone2":"","linkmap":"https:\\\/\\\/goo.gl\/maps\/j1Fy68byP7h6MiA76","web":"","hours1":"","hours2":"","hours3":"","featured":"","features":"","date":"2022-06-22"},{"id":118,"name":"LA GRANJA DE XALAPA SUCURSAL CENTRAL DE ABASTOS CEDIS","lat":"19.5146481","lng":"-96.8536195","category":"Distribuidor","address":"Central de Abastos, Col. Loma Esmeralda","address2":"","city":"Xalapa","state":"Veracruz","postal":"91164","phone":"(228) 117-8700","phone2":"(228) 117-8701","linkmap":"https:\\\/\\\/goo.gl\/maps\/j1Fy68byP7h6MiA76","web":"","hours1":"","hours2":"","hours3":"","featured":"","features":"","date":"2022-06-22"},{"id":119,"name":"LA GRANJA DE XALAPA SUCURSAL ROTONDA","lat":"19.5396576","lng":"-96.9249575","category":"Distribuidor","address":"Revolución No. 338, Col. Centro","address2":"","city":"Xalapa","state":"Veracruz","postal":"91130","phone":"","phone2":"","linkmap":"https:\\\/\\\/goo.gl\/maps\/PzJvrBEkkirtqzFd9","web":"","hours1":"","hours2":"","hours3":"","featured":"","features":"","date":"2022-06-22"},{"id":120,"name":"LA GRANJA DE XALAPA SUCURSAL EL OLMO","lat":"19.5403042","lng":"-96.9137028","category":"Distribuidor","address":"Av. El Olmo No. 9, Col. Trancas","address2":"","city":"Emiliano Zapata","state":"Veracruz","postal":"91194","phone":"","phone2":"","linkmap":"https:\\\/\\\/goo.gl\/maps\/ZxwohZhiQMSmWLG19","web":"","hours1":"","hours2":"","hours3":"","featured":"","features":"","date":"2022-06-22"},{"id":121,"name":"VETERINARIA FLORES","lat":"18.8038077","lng":"-97.1843751","category":"Distribuidor","address":"Av. Morelos No. 502 A, Col. Centro","address2":"","city":"Mendoza","state":"Veracruz","postal":"94740","phone":"(272) 101-7534","phone2":"","linkmap":"https:\\\/\\\/goo.gl\/maps\/HZPD3Avx4ebkyXuL9","web":"","hours1":"","hours2":"","hours3":"","featured":"","features":"","date":"2022-06-22"},{"id":122,"name":"VETERINARIA FLORES","lat":"18.8106393","lng":"-97.28052","category":"Distribuidor","address":"Av. Juárez No. 94 A, Col. Centro","address2":"","city":"Maltrata","state":"Veracruz","postal":"94700","phone":"(272) 742-0234","phone2":"","linkmap":"https:\\\/\\\/goo.gl\/maps\/3A8ozpjdUDedqTMQ7","web":"","hours1":"","hours2":"","hours3":"","featured":"","features":"","date":"2022-06-22"}]